{
  "generated_at_utc": "2026-01-09T15:37:14.011126+00:00",
  "source": "OurAirports airports.csv",
  "missing": [],
  "airports": [
    {
      "icao": "BIKF",
      "name": "Keflavik International Airport",
      "lat": 63.985001,
      "lon": -22.6056,
      "country": "IS",
      "municipality": "Reykjavík"
    },
    {
      "icao": "BKPR",
      "name": "Priština Adem Jashari International Airport",
      "lat": 42.5728,
      "lon": 21.035801,
      "country": "XK",
      "municipality": "Prishtina"
    },
    {
      "icao": "GCFV",
      "name": "Fuerteventura Airport",
      "lat": 28.4527,
      "lon": -13.8638,
      "country": "ES",
      "municipality": "El Matorral"
    },
    {
      "icao": "GCLP",
      "name": "Gran Canaria Airport",
      "lat": 27.9319,
      "lon": -15.3866,
      "country": "ES",
      "municipality": "Gran Canaria Island"
    },
    {
      "icao": "GCTS",
      "name": "Tenerife Sur Airport",
      "lat": 28.0445,
      "lon": -16.5725,
      "country": "ES",
      "municipality": "Tenerife"
    },
    {
      "icao": "GMAD",
      "name": "Al Massira Airport",
      "lat": 30.322478,
      "lon": -9.412003,
      "country": "MA",
      "municipality": "Agadir (Temsia)"
    },
    {
      "icao": "GMMN",
      "name": "Mohammed V International Airport",
      "lat": 33.3675,
      "lon": -7.58997,
      "country": "MA",
      "municipality": "Casablanca"
    },
    {
      "icao": "GMMX",
      "name": "Marrakesh Menara Airport",
      "lat": 31.604807,
      "lon": -8.035788,
      "country": "MA",
      "municipality": "Marrakesh"
    },
    {
      "icao": "EBCI",
      "name": "Brussels South Charleroi Airport",
      "lat": 50.460982,
      "lon": 4.457158,
      "country": "BE",
      "municipality": "Charleroi"
    },
    {
      "icao": "EDDB",
      "name": "Berlin Brandenburg Willy Brandt Airport",
      "lat": 52.361738,
      "lon": 13.502341,
      "country": "DE",
      "municipality": "Berlin"
    },
    {
      "icao": "EDDH",
      "name": "Hamburg Helmut Schmidt Airport",
      "lat": 53.630402,
      "lon": 9.98823,
      "country": "DE",
      "municipality": "Hamburg"
    },
    {
      "icao": "EDDK",
      "name": "Cologne Bonn Airport",
      "lat": 50.865898,
      "lon": 7.14274,
      "country": "DE",
      "municipality": "Köln (Cologne)"
    },
    {
      "icao": "EDDN",
      "name": "Nuremberg Airport",
      "lat": 49.498699,
      "lon": 11.078056,
      "country": "DE",
      "municipality": "Nuremberg"
    },
    {
      "icao": "EDDS",
      "name": "Stuttgart Airport",
      "lat": 48.689899,
      "lon": 9.22196,
      "country": "DE",
      "municipality": "Stuttgart"
    },
    {
      "icao": "EDFH",
      "name": "Frankfurt-Hahn Airport",
      "lat": 49.946353,
      "lon": 7.261734,
      "country": "DE",
      "municipality": "Frankfurt am Main (Lautzenhausen)"
    },
    {
      "icao": "EDJA",
      "name": "Memmingen Allgau Airport",
      "lat": 47.988092,
      "lon": 10.238248,
      "country": "DE",
      "municipality": "Memmingen"
    },
    {
      "icao": "EDLW",
      "name": "Dortmund Airport",
      "lat": 51.518299,
      "lon": 7.61224,
      "country": "DE",
      "municipality": "Dortmund"
    },
    {
      "icao": "EDNY",
      "name": "Bodensee Airport Friedrichshafen",
      "lat": 47.671299,
      "lon": 9.51149,
      "country": "DE",
      "municipality": "Friedrichshafen"
    },
    {
      "icao": "EDSB",
      "name": "Karlsruhe Baden-Baden Airport",
      "lat": 48.7794,
      "lon": 8.0805,
      "country": "DE",
      "municipality": "Rheinmünster"
    },
    {
      "icao": "EETN",
      "name": "Lennart Meri Tallinn Airport",
      "lat": 59.413246,
      "lon": 24.83264,
      "country": "EE",
      "municipality": "Tallinn"
    },
    {
      "icao": "EFTU",
      "name": "Turku Airport",
      "lat": 60.514099,
      "lon": 22.2628,
      "country": "FI",
      "municipality": "Turku"
    },
    {
      "icao": "EGBB",
      "name": "Birmingham Airport",
      "lat": 52.453899,
      "lon": -1.74803,
      "country": "GB",
      "municipality": "Birmingham, West Midlands"
    },
    {
      "icao": "EGGP",
      "name": "Liverpool John Lennon Airport",
      "lat": 53.333599,
      "lon": -2.84972,
      "country": "GB",
      "municipality": "Liverpool"
    },
    {
      "icao": "EGGW",
      "name": "London Luton Airport",
      "lat": 51.874699,
      "lon": -0.368333,
      "country": "GB",
      "municipality": "Luton, Bedfordshire"
    },
    {
      "icao": "EGKK",
      "name": "London Gatwick Airport",
      "lat": 51.148771,
      "lon": -0.192089,
      "country": "GB",
      "municipality": "London"
    },
    {
      "icao": "EGNM",
      "name": "Leeds Bradford Airport",
      "lat": 53.865898,
      "lon": -1.66057,
      "country": "GB",
      "municipality": "Leeds, West Yorkshire"
    },
    {
      "icao": "EGPD",
      "name": "Aberdeen International Airport",
      "lat": 57.2019,
      "lon": -2.19778,
      "country": "GB",
      "municipality": "Aberdeen"
    },
    {
      "icao": "EGPF",
      "name": "Glasgow Airport",
      "lat": 55.871899,
      "lon": -4.43306,
      "country": "GB",
      "municipality": "Glasgow"
    },
    {
      "icao": "EHBK",
      "name": "Maastricht Aachen Airport",
      "lat": 50.911701,
      "lon": 5.77014,
      "country": "NL",
      "municipality": "Maastricht"
    },
    {
      "icao": "EHEH",
      "name": "Eindhoven Airport",
      "lat": 51.4500999451,
      "lon": 5.37452983856,
      "country": "NL",
      "municipality": "Eindhoven"
    },
    {
      "icao": "EKBI",
      "name": "Billund Airport",
      "lat": 55.740335,
      "lon": 9.157019,
      "country": "DK",
      "municipality": "Billund"
    },
    {
      "icao": "EKCH",
      "name": "Copenhagen Kastrup Airport",
      "lat": 55.617900848389,
      "lon": 12.656000137329,
      "country": "DK",
      "municipality": "Copenhagen"
    },
    {
      "icao": "ENAL",
      "name": "Ålesund Airport, Vigra",
      "lat": 62.5625,
      "lon": 6.1197,
      "country": "NO",
      "municipality": "Ålesund"
    },
    {
      "icao": "ENBR",
      "name": "Bergen Airport, Flesland",
      "lat": 60.2934,
      "lon": 5.21814,
      "country": "NO",
      "municipality": "Bergen"
    },
    {
      "icao": "ENGM",
      "name": "Oslo-Gardermoen International Airport",
      "lat": 60.193901,
      "lon": 11.1004,
      "country": "NO",
      "municipality": "Oslo (Gardermoen)"
    },
    {
      "icao": "ENHD",
      "name": "Haugesund Airport, Karmøy",
      "lat": 59.345299,
      "lon": 5.20836,
      "country": "NO",
      "municipality": "Karmøy"
    },
    {
      "icao": "ENTC",
      "name": "Tromsø Airport, Langnes",
      "lat": 69.683296,
      "lon": 18.9189,
      "country": "NO",
      "municipality": "Tromsø"
    },
    {
      "icao": "ENTO",
      "name": "Sandefjord Airport, Torp",
      "lat": 59.186699,
      "lon": 10.2586,
      "country": "NO",
      "municipality": "Torp"
    },
    {
      "icao": "ENVA",
      "name": "Trondheim Airport, Værnes",
      "lat": 63.457802,
      "lon": 10.924,
      "country": "NO",
      "municipality": "Trondheim"
    },
    {
      "icao": "ENZV",
      "name": "Stavanger Airport, Sola",
      "lat": 58.876701,
      "lon": 5.63778,
      "country": "NO",
      "municipality": "Stavanger"
    },
    {
      "icao": "EPGD",
      "name": "Gdańsk Lech Wałęsa Airport",
      "lat": 54.377602,
      "lon": 18.4662,
      "country": "PL",
      "municipality": "Gdańsk"
    },
    {
      "icao": "EPKK",
      "name": "Kraków John Paul II International Airport",
      "lat": 50.077702,
      "lon": 19.7848,
      "country": "PL",
      "municipality": "Balice"
    },
    {
      "icao": "EPKT",
      "name": "Katowice Wojciech Korfanty International Airport",
      "lat": 50.476015,
      "lon": 19.080705,
      "country": "PL",
      "municipality": "Katowice"
    },
    {
      "icao": "EPLB",
      "name": "Lublin Airport",
      "lat": 51.240157,
      "lon": 22.713461,
      "country": "PL",
      "municipality": "Lublin"
    },
    {
      "icao": "EPMO",
      "name": "Modlin Airport",
      "lat": 52.451099,
      "lon": 20.6518,
      "country": "PL",
      "municipality": "Nowy Dwór Mazowiecki"
    },
    {
      "icao": "EPPO",
      "name": "Poznań-Ławica Airport",
      "lat": 52.421598,
      "lon": 16.823359,
      "country": "PL",
      "municipality": "Poznań"
    },
    {
      "icao": "EPRA",
      "name": "Warsaw Radom Airport",
      "lat": 51.38937,
      "lon": 21.214742,
      "country": "PL",
      "municipality": "Radom"
    },
    {
      "icao": "EPRZ",
      "name": "Rzeszów-Jasionka Airport",
      "lat": 50.109791,
      "lon": 22.024155,
      "country": "PL",
      "municipality": "Jasionka"
    },
    {
      "icao": "EPSC",
      "name": "Solidarity Szczecin–Goleniów Airport",
      "lat": 53.584702,
      "lon": 14.9022,
      "country": "PL",
      "municipality": "Glewice"
    },
    {
      "icao": "EPSY",
      "name": "Olsztyn-Mazury Airport",
      "lat": 53.481899,
      "lon": 20.9377,
      "country": "PL",
      "municipality": "Szymany"
    },
    {
      "icao": "EPWA",
      "name": "Warsaw Chopin Airport",
      "lat": 52.165699,
      "lon": 20.9671,
      "country": "PL",
      "municipality": "Warsaw"
    },
    {
      "icao": "EPWR",
      "name": "Copernicus Wrocław Airport",
      "lat": 51.103719,
      "lon": 16.882096,
      "country": "PL",
      "municipality": "Wrocław"
    },
    {
      "icao": "ESGG",
      "name": "Göteborg Landvetter Airport",
      "lat": 57.6628,
      "lon": 12.2798,
      "country": "SE",
      "municipality": "Göteborg"
    },
    {
      "icao": "ESKN",
      "name": "Stockholm Skavsta Airport",
      "lat": 58.789656,
      "lon": 16.911479,
      "country": "SE",
      "municipality": "Nyköping"
    },
    {
      "icao": "ESMS",
      "name": "Malmö Sturup Airport",
      "lat": 55.535564,
      "lon": 13.376327,
      "country": "SE",
      "municipality": "Malmö"
    },
    {
      "icao": "ESSA",
      "name": "Stockholm-Arlanda Airport",
      "lat": 59.64849,
      "lon": 17.928829,
      "country": "SE",
      "municipality": "Stockholm"
    },
    {
      "icao": "EYKA",
      "name": "Kaunas International Airport",
      "lat": 54.96390151977539,
      "lon": 24.084800720214844,
      "country": "LT",
      "municipality": "Kaunas"
    },
    {
      "icao": "EYPA",
      "name": "Palanga International Airport",
      "lat": 55.973201751708984,
      "lon": 21.093900680541992,
      "country": "LT",
      "municipality": "Palanga"
    },
    {
      "icao": "EYVI",
      "name": "Vilnius International Airport",
      "lat": 54.634102,
      "lon": 25.285801,
      "country": "LT",
      "municipality": "Vilnius"
    },
    {
      "icao": "HEGN",
      "name": "Hurghada International Airport",
      "lat": 27.176776,
      "lon": 33.796692,
      "country": "EG",
      "municipality": "Hurghada"
    },
    {
      "icao": "HEMA",
      "name": "Marsa Alam International Airport",
      "lat": 25.555548,
      "lon": 34.59245,
      "country": "EG",
      "municipality": "Marsa Alam"
    },
    {
      "icao": "HESH",
      "name": "Sharm El Sheikh International Airport",
      "lat": 27.977272,
      "lon": 34.394717,
      "country": "EG",
      "municipality": "Sharm El Sheikh"
    },
    {
      "icao": "HESX",
      "name": "Sphinx International Airport",
      "lat": 30.108179,
      "lon": 30.895728,
      "country": "EG",
      "municipality": "Al Jiza"
    },
    {
      "icao": "LATI",
      "name": "Tirana International Airport Mother Teresa",
      "lat": 41.4147,
      "lon": 19.7206,
      "country": "AL",
      "municipality": "Rinas"
    },
    {
      "icao": "LBPD",
      "name": "Plovdiv International Airport",
      "lat": 42.067799,
      "lon": 24.8508,
      "country": "BG",
      "municipality": "Plovdiv"
    },
    {
      "icao": "LBSF",
      "name": "Sofia Airport",
      "lat": 42.696357,
      "lon": 23.417671,
      "country": "BG",
      "municipality": "Sofia"
    },
    {
      "icao": "LBWN",
      "name": "Varna Airport",
      "lat": 43.232101,
      "lon": 27.8251,
      "country": "BG",
      "municipality": "Varna"
    },
    {
      "icao": "LCLK",
      "name": "Larnaca International Airport",
      "lat": 34.875099,
      "lon": 33.624901,
      "country": "CY",
      "municipality": "Larnaca"
    },
    {
      "icao": "LCPH",
      "name": "Paphos International Airport",
      "lat": 34.717999,
      "lon": 32.485699,
      "country": "CY",
      "municipality": "Paphos"
    },
    {
      "icao": "LEAL",
      "name": "Alicante-Elche Miguel Hernández Airport",
      "lat": 38.2822,
      "lon": -0.558156,
      "country": "ES",
      "municipality": "Alicante"
    },
    {
      "icao": "LEBB",
      "name": "Bilbao Airport",
      "lat": 43.301102,
      "lon": -2.91061,
      "country": "ES",
      "municipality": "Bilbao"
    },
    {
      "icao": "LEBL",
      "name": "Josep Tarradellas Barcelona-El Prat Airport",
      "lat": 41.2971,
      "lon": 2.07846,
      "country": "ES",
      "municipality": "Barcelona"
    },
    {
      "icao": "LECH",
      "name": "Castellón-Costa Azahar Airport",
      "lat": 40.213889,
      "lon": 0.073333,
      "country": "ES",
      "municipality": "Castellón de la Plana"
    },
    {
      "icao": "LEMD",
      "name": "Adolfo Suárez Madrid–Barajas Airport",
      "lat": 40.471926,
      "lon": -3.56264,
      "country": "ES",
      "municipality": "Madrid"
    },
    {
      "icao": "LEMG",
      "name": "Málaga-Costa del Sol Airport",
      "lat": 36.6749,
      "lon": -4.49911,
      "country": "ES",
      "municipality": "Málaga"
    },
    {
      "icao": "LEVC",
      "name": "Valencia Airport",
      "lat": 39.4893,
      "lon": -0.481625,
      "country": "ES",
      "municipality": "Valencia"
    },
    {
      "icao": "LEXJ",
      "name": "Seve Ballesteros-Santander Airport",
      "lat": 43.427101,
      "lon": -3.82001,
      "country": "ES",
      "municipality": "Santander"
    },
    {
      "icao": "LEZG",
      "name": "Zaragoza Airport",
      "lat": 41.666199,
      "lon": -1.04155,
      "country": "ES",
      "municipality": "Zaragoza"
    },
    {
      "icao": "LEZL",
      "name": "Sevilla Airport",
      "lat": 37.417999,
      "lon": -5.89311,
      "country": "ES",
      "municipality": "Sevilla"
    },
    {
      "icao": "LFBD",
      "name": "Bordeaux–Mérignac Airport",
      "lat": 44.82865,
      "lon": -0.715356,
      "country": "FR",
      "municipality": "Bordeaux"
    },
    {
      "icao": "LFLL",
      "name": "Lyon Saint-Exupéry Airport",
      "lat": 45.725996,
      "lon": 5.090139,
      "country": "FR",
      "municipality": "Colombier-Saugnieu, Rhône"
    },
    {
      "icao": "LFLS",
      "name": "Grenoble Alpes Isère Airport",
      "lat": 45.3629,
      "lon": 5.32937,
      "country": "FR",
      "municipality": "Grenoble"
    },
    {
      "icao": "LFMN",
      "name": "Nice-Côte d'Azur Airport",
      "lat": 43.658401,
      "lon": 7.21587,
      "country": "FR",
      "municipality": "Nice, Alpes-Maritimes"
    },
    {
      "icao": "LFOB",
      "name": "Beauvais Tillé airport",
      "lat": 49.454399,
      "lon": 2.11278,
      "country": "FR",
      "municipality": "Beauvais"
    },
    {
      "icao": "LFPO",
      "name": "Paris-Orly Airport",
      "lat": 48.72333,
      "lon": 2.37944,
      "country": "FR",
      "municipality": "Paris (Orly, Val-de-Marne)"
    },
    {
      "icao": "LFSB",
      "name": "EuroAirport Basel–Mulhouse–Freiburg",
      "lat": 47.60068,
      "lon": 7.521117,
      "country": "FR",
      "municipality": "Bâle / Mulhouse"
    },
    {
      "icao": "LGAV",
      "name": "Athens Eleftherios Venizelos International Airport",
      "lat": 37.936401,
      "lon": 23.9445,
      "country": "GR",
      "municipality": "Spata-Artemida"
    },
    {
      "icao": "LGTS",
      "name": "Thessaloniki Macedonia International Airport",
      "lat": 40.51928,
      "lon": 22.970009,
      "country": "GR",
      "municipality": "Thessaloniki"
    },
    {
      "icao": "LHBP",
      "name": "Budapest Liszt Ferenc International Airport",
      "lat": 47.43018,
      "lon": 19.262393,
      "country": "HU",
      "municipality": "Budapest"
    },
    {
      "icao": "LHDC",
      "name": "Debrecen International Airport",
      "lat": 47.488899,
      "lon": 21.615299,
      "country": "HU",
      "municipality": "Debrecen"
    },
    {
      "icao": "LIBD",
      "name": "Bari Karol Wojtyła International Airport",
      "lat": 41.138901,
      "lon": 16.760599,
      "country": "IT",
      "municipality": "Bari"
    },
    {
      "icao": "LIBG",
      "name": "Taranto-Grottaglie Marcello Arlotta Airport",
      "lat": 40.517502,
      "lon": 17.4032,
      "country": "IT",
      "municipality": "Grottaglie"
    },
    {
      "icao": "LIBP",
      "name": "Abruzzo Airport",
      "lat": 42.431079,
      "lon": 14.182981,
      "country": "IT",
      "municipality": "Pescara"
    },
    {
      "icao": "LIBR",
      "name": "Brindisi Airport",
      "lat": 40.6576,
      "lon": 17.947001,
      "country": "IT",
      "municipality": "Brindisi"
    },
    {
      "icao": "LICA",
      "name": "Lamezia Terme Sant'Eufemia International Airport",
      "lat": 38.906214,
      "lon": 16.246007,
      "country": "IT",
      "municipality": "Lamezia Terme (CZ)"
    },
    {
      "icao": "LICC",
      "name": "Catania-Fontanarossa Airport",
      "lat": 37.466801,
      "lon": 15.0664,
      "country": "IT",
      "municipality": "Catania"
    },
    {
      "icao": "LICJ",
      "name": "Falcone–Borsellino Airport",
      "lat": 38.175999,
      "lon": 13.091,
      "country": "IT",
      "municipality": "Palermo"
    },
    {
      "icao": "LIMC",
      "name": "Milan Malpensa International Airport",
      "lat": 45.6306,
      "lon": 8.72811,
      "country": "IT",
      "municipality": "Ferno (VA)"
    },
    {
      "icao": "LIME",
      "name": "Milan Bergamo Airport / Antonio Locatelli Air Base",
      "lat": 45.670725,
      "lon": 9.709223,
      "country": "IT",
      "municipality": "Orio al Serio (BG)"
    },
    {
      "icao": "LIMF",
      "name": "Turin Airport",
      "lat": 45.200802,
      "lon": 7.64963,
      "country": "IT",
      "municipality": "Caselle Torinese (TO)"
    },
    {
      "icao": "LIMJ",
      "name": "Genoa Cristoforo Colombo Airport",
      "lat": 44.412039,
      "lon": 8.840732,
      "country": "IT",
      "municipality": "Genova (GE)"
    },
    {
      "icao": "LIPE",
      "name": "Bologna Guglielmo Marconi Airport",
      "lat": 44.5354,
      "lon": 11.2887,
      "country": "IT",
      "municipality": "Bologna"
    },
    {
      "icao": "LIPH",
      "name": "Treviso Antonio Canova Airport",
      "lat": 45.648399,
      "lon": 12.1944,
      "country": "IT",
      "municipality": "Treviso (TV)"
    },
    {
      "icao": "LIPQ",
      "name": "Trieste–Friuli Venezia Giulia Airport",
      "lat": 45.827499,
      "lon": 13.4722,
      "country": "IT",
      "municipality": "Ronchi dei Legionari (GO)"
    },
    {
      "icao": "LIPR",
      "name": "Federico Fellini International Airport",
      "lat": 44.020024,
      "lon": 12.612198,
      "country": "IT",
      "municipality": "Rimini (RN)"
    },
    {
      "icao": "LIPX",
      "name": "Verona Villafranca Valerio Catullo Airport",
      "lat": 45.394955,
      "lon": 10.887303,
      "country": "IT",
      "municipality": "Caselle (VR)"
    },
    {
      "icao": "LIPY",
      "name": "Marche Airport",
      "lat": 43.616299,
      "lon": 13.3623,
      "country": "IT",
      "municipality": "Falconara Marittima (AN)"
    },
    {
      "icao": "LIPZ",
      "name": "Venice Marco Polo Airport",
      "lat": 45.505299,
      "lon": 12.3519,
      "country": "IT",
      "municipality": "Venezia (VE)"
    },
    {
      "icao": "LIRF",
      "name": "Rome–Fiumicino Leonardo da Vinci International Airport",
      "lat": 41.804532,
      "lon": 12.251998,
      "country": "IT",
      "municipality": "Rome"
    },
    {
      "icao": "LIRN",
      "name": "Naples International Airport",
      "lat": 40.886002,
      "lon": 14.2908,
      "country": "IT",
      "municipality": "Napoli"
    },
    {
      "icao": "LIRP",
      "name": "Pisa International Airport",
      "lat": 43.683899,
      "lon": 10.3927,
      "country": "IT",
      "municipality": "Pisa (PI)"
    },
    {
      "icao": "LIRZ",
      "name": "Perugia San Francesco d'Assisi – Umbria International Airport",
      "lat": 43.095901,
      "lon": 12.5132,
      "country": "IT",
      "municipality": "Perugia (PG)"
    },
    {
      "icao": "LJLJ",
      "name": "Ljubljana Jože Pučnik Airport",
      "lat": 46.223701,
      "lon": 14.4576,
      "country": "SI",
      "municipality": "Zgornji Brnik"
    },
    {
      "icao": "LKMT",
      "name": "Leoš Janáček Airport Ostrava",
      "lat": 49.696301,
      "lon": 18.111099,
      "country": "CZ",
      "municipality": "Mošnov"
    },
    {
      "icao": "LKPR",
      "name": "Václav Havel Airport Prague",
      "lat": 50.100874,
      "lon": 14.259911,
      "country": "CZ",
      "municipality": "Prague"
    },
    {
      "icao": "LLBG",
      "name": "Ben Gurion International Airport",
      "lat": 32.011398,
      "lon": 34.8867,
      "country": "IL",
      "municipality": "Tel Aviv"
    },
    {
      "icao": "LMML",
      "name": "Malta International Airport",
      "lat": 35.857498,
      "lon": 14.4775,
      "country": "MT",
      "municipality": "Valletta"
    },
    {
      "icao": "LOWW",
      "name": "Vienna International Airport",
      "lat": 48.110298,
      "lon": 16.5697,
      "country": "AT",
      "municipality": "Vienna"
    },
    {
      "icao": "LPFR",
      "name": "Faro Airport",
      "lat": 37.0144004822,
      "lon": -7.96590995789,
      "country": "PT",
      "municipality": "Faro"
    },
    {
      "icao": "LPMA",
      "name": "Madeira International Airport Cristiano Ronaldo",
      "lat": 32.697899,
      "lon": -16.7745,
      "country": "PT",
      "municipality": "Funchal"
    },
    {
      "icao": "LPPR",
      "name": "Francisco de Sá Carneiro Airport",
      "lat": 41.2481002808,
      "lon": -8.68138980865,
      "country": "PT",
      "municipality": "Porto"
    },
    {
      "icao": "LPPS",
      "name": "Porto Santo Airport",
      "lat": 33.0733985901,
      "lon": -16.3500003815,
      "country": "PT",
      "municipality": "Vila Baleira"
    },
    {
      "icao": "LPPT",
      "name": "Lisbon Humberto Delgado Airport",
      "lat": 38.7813,
      "lon": -9.13592,
      "country": "PT",
      "municipality": "Lisbon"
    },
    {
      "icao": "LQBK",
      "name": "Banja Luka International Airport",
      "lat": 44.941399,
      "lon": 17.297501,
      "country": "BA",
      "municipality": "Mahovljani"
    },
    {
      "icao": "LQSA",
      "name": "Sarajevo International Airport",
      "lat": 43.8246,
      "lon": 18.331499,
      "country": "BA",
      "municipality": "Sarajevo"
    },
    {
      "icao": "LQTZ",
      "name": "Tuzla International Airport",
      "lat": 44.458698,
      "lon": 18.7248,
      "country": "BA",
      "municipality": "Dubrave Gornje"
    },
    {
      "icao": "LRIA",
      "name": "Iaşi Airport",
      "lat": 47.180278,
      "lon": 27.620833,
      "country": "RO",
      "municipality": "Iaşi"
    },
    {
      "icao": "LRBC",
      "name": "Bacău George Enescu International  Airport",
      "lat": 46.5219,
      "lon": 26.910299,
      "country": "RO",
      "municipality": "Bacău"
    },
    {
      "icao": "LRBS",
      "name": "Bucharest Băneasa Aurel Vlaicu International Airport",
      "lat": 44.503133,
      "lon": 26.102944,
      "country": "RO",
      "municipality": "Bucharest"
    },
    {
      "icao": "LRBV",
      "name": "Brașov-Ghimbav International Airport",
      "lat": 45.70558,
      "lon": 25.522871,
      "country": "RO",
      "municipality": "Brașov (Ghimbav)"
    },
    {
      "icao": "LRCL",
      "name": "Cluj Avram Iancu International Airport",
      "lat": 46.787425,
      "lon": 23.684292,
      "country": "RO",
      "municipality": "Cluj-Napoca"
    },
    {
      "icao": "LRCV",
      "name": "Craiova International Airport",
      "lat": 44.3181,
      "lon": 23.888599,
      "country": "RO",
      "municipality": "Craiova"
    },
    {
      "icao": "LROP",
      "name": "Bucharest Henri Coandă International Airport",
      "lat": 44.571792,
      "lon": 26.103285,
      "country": "RO",
      "municipality": "Otopeni"
    },
    {
      "icao": "LRSB",
      "name": "Sibiu International Airport",
      "lat": 45.785841,
      "lon": 24.086666,
      "country": "RO",
      "municipality": "Sibiu"
    },
    {
      "icao": "LRSM",
      "name": "Satu Mare International Airport",
      "lat": 47.7033,
      "lon": 22.8857,
      "country": "RO",
      "municipality": "Satu Mare"
    },
    {
      "icao": "LRSV",
      "name": "Suceava Stefan cel Mare Airport",
      "lat": 47.6875,
      "lon": 26.35409927368164,
      "country": "RO",
      "municipality": "Suceava"
    },
    {
      "icao": "LRTM",
      "name": "Târgu Mureş Transilvania International Airport",
      "lat": 46.467701,
      "lon": 24.4125,
      "country": "RO",
      "municipality": "Recea"
    },
    {
      "icao": "LRTR",
      "name": "Timişoara Traian Vuia Airport",
      "lat": 45.809898,
      "lon": 21.3379,
      "country": "RO",
      "municipality": "Timişoara"
    },
    {
      "icao": "LTAC",
      "name": "Esenboğa International Airport",
      "lat": 40.128101,
      "lon": 32.995098,
      "country": "TR",
      "municipality": "Ankara"
    },
    {
      "icao": "LTFM",
      "name": "İstanbul Airport",
      "lat": 41.261297,
      "lon": 28.741951,
      "country": "TR",
      "municipality": "Arnavutköy, Istanbul"
    },
    {
      "icao": "LUKK",
      "name": "Chişinău International Airport",
      "lat": 46.9277,
      "lon": 28.931,
      "country": "MD",
      "municipality": "Chişinău"
    },
    {
      "icao": "LWOH",
      "name": "Ohrid St. Paul the Apostle Airport",
      "lat": 41.18,
      "lon": 20.7423,
      "country": "MK",
      "municipality": "Ohrid"
    },
    {
      "icao": "LWSK",
      "name": "Skopje International Airport",
      "lat": 41.958087,
      "lon": 21.622581,
      "country": "MK",
      "municipality": "Ilinden"
    },
    {
      "icao": "LYBE",
      "name": "Belgrade Nikola Tesla Airport",
      "lat": 44.818401,
      "lon": 20.309099,
      "country": "RS",
      "municipality": "Belgrade"
    },
    {
      "icao": "LYNI",
      "name": "Niš Constantine the Great Airport",
      "lat": 43.337009,
      "lon": 21.85451,
      "country": "RS",
      "municipality": "Niš"
    },
    {
      "icao": "LYPG",
      "name": "Podgorica Airport / Podgorica Golubovci Airbase",
      "lat": 42.359402,
      "lon": 19.2519,
      "country": "ME",
      "municipality": "Podgorica"
    },
    {
      "icao": "LZIB",
      "name": "M. R. Štefánik Airport",
      "lat": 48.1702,
      "lon": 17.2127,
      "country": "SK",
      "municipality": "Bratislava"
    },
    {
      "icao": "LZKZ",
      "name": "Košice International Airport",
      "lat": 48.663101,
      "lon": 21.2411,
      "country": "SK",
      "municipality": "Košice"
    },
    {
      "icao": "LZTT",
      "name": "Poprad-Tatry Airport",
      "lat": 49.073601,
      "lon": 20.2411,
      "country": "SK",
      "municipality": "Poprad"
    },
    {
      "icao": "OEJN",
      "name": "King Abdulaziz International Airport",
      "lat": 21.6796,
      "lon": 39.156502,
      "country": "SA",
      "municipality": "Jeddah"
    },
    {
      "icao": "OEMA",
      "name": "Prince Mohammad Bin Abdulaziz Airport",
      "lat": 24.5534,
      "lon": 39.705101,
      "country": "SA",
      "municipality": "Medina"
    },
    {
      "icao": "OJAI",
      "name": "Queen Alia International Airport",
      "lat": 31.7226009369,
      "lon": 35.9931983948,
      "country": "JO",
      "municipality": "Amman"
    },
    {
      "icao": "OMAA",
      "name": "Zayed International Airport",
      "lat": 24.443764,
      "lon": 54.651718,
      "country": "AE",
      "municipality": "Abu Dhabi"
    },
    {
      "icao": "OMDB",
      "name": "Dubai International Airport",
      "lat": 25.2527999878,
      "lon": 55.3643989563,
      "country": "AE",
      "municipality": "Dubai"
    },
    {
      "icao": "UAAA",
      "name": "Almaty International Airport",
      "lat": 43.354267,
      "lon": 77.042828,
      "country": "KZ",
      "municipality": "Almaty"
    },
    {
      "icao": "UBBB",
      "name": "Heydar Aliyev International Airport",
      "lat": 40.467498779296875,
      "lon": 50.04669952392578,
      "country": "AZ",
      "municipality": "Baku"
    },
    {
      "icao": "UDSG",
      "name": "Shirak International Airport",
      "lat": 40.750401,
      "lon": 43.859299,
      "country": "AM",
      "municipality": "Gyumri"
    },
    {
      "icao": "UDYZ",
      "name": "Zvartnots International Airport",
      "lat": 40.1473007202,
      "lon": 44.3959007263,
      "country": "AM",
      "municipality": "Yerevan"
    },
    {
      "icao": "UGKO",
      "name": "David the Builder Kutaisi International Airport",
      "lat": 42.176768,
      "lon": 42.482393,
      "country": "GE",
      "municipality": "Kopitnari"
    }
  ]
}